{"dailygameschedule":{"lastUpdatedOn":"2018-03-05 8:39:07 AM","gameentry":[{"id":"43019","scheduleStatus":"Normal","originalDate":null,"originalTime":null,"delayedOrPostponedReason":null,"date":"2018-03-05","time":"7:00PM","awayTeam":{"ID":"88","City":"Detroit","Name":"Pistons","Abbreviation":"DET"},"homeTeam":{"ID":"86","City":"Cleveland","Name":"Cavaliers","Abbreviation":"CLE"},"location":"Quicken Loans Arena"},{"id":"43020","scheduleStatus":"Normal","originalDate":null,"originalTime":null,"delayedOrPostponedReason":null,"date":"2018-03-05","time":"7:00PM","awayTeam":{"ID":"90","City":"Milwaukee","Name":"Bucks","Abbreviation":"MIL"},"homeTeam":{"ID":"87","City":"Indiana","Name":"Pacers","Abbreviation":"IND"},"location":"Bankers Life Fieldhouse"},{"id":"43021","scheduleStatus":"Normal","originalDate":null,"originalTime":null,"delayedOrPostponedReason":null,"date":"2018-03-05","time":"7:30PM","awayTeam":{"ID":"104","City":"Phoenix","Name":"Suns","Abbreviation":"PHX"},"homeTeam":{"ID":"92","City":"Miami","Name":"Heat","Abbreviation":"MIA"},"location":"American Airlines Arena"},{"id":"43022","scheduleStatus":"Normal","originalDate":null,"originalTime":null,"delayedOrPostponedReason":null,"date":"2018-03-05","time":"8:00PM","awayTeam":{"ID":"82","City":"Boston","Name":"Celtics","Abbreviation":"BOS"},"homeTeam":{"ID":"89","City":"Chicago","Name":"Bulls","Abbreviation":"CHI"},"location":"KeyBank Center"},{"id":"43023","scheduleStatus":"Normal","originalDate":null,"originalTime":null,"delayedOrPostponedReason":null,"date":"2018-03-05","time":"8:30PM","awayTeam":{"ID":"107","City":"Memphis","Name":"Grizzlies","Abbreviation":"MEM"},"homeTeam":{"ID":"106","City":"San Antonio","Name":"Spurs","Abbreviation":"SAS"},"location":"AT&T Center"},{"id":"43024","scheduleStatus":"Normal","originalDate":null,"originalTime":null,"delayedOrPostponedReason":null,"date":"2018-03-05","time":"9:00PM","awayTeam":{"ID":"95","City":"Orlando","Name":"Magic","Abbreviation":"ORL"},"homeTeam":{"ID":"98","City":"Utah","Name":"Jazz","Abbreviation":"UTA"},"location":"Vivint Smart Home Arena"},{"id":"43025","scheduleStatus":"Normal","originalDate":null,"originalTime":null,"delayedOrPostponedReason":null,"date":"2018-03-05","time":"10:30PM","awayTeam":{"ID":"97","City":"Portland","Name":"Trail Blazers","Abbreviation":"POR"},"homeTeam":{"ID":"105","City":"Los Angeles","Name":"Lakers","Abbreviation":"LAL"},"location":"Staples Center"}]}}